{
    "status": "OK",
    "num_results": 8,
    "results": [
        {"id": "1", "lat": "41.416556", "lng": "2.152194", "elevation": "0", "title": "Parc Güell", "has_detail_page":"1", "webpage": "http://ca.m.wikipedia.org/wiki/Parc_G%C3%BCell"},
        {"id": "2", "lat": "41.379183", "lng": "2.174445", "elevation": "0", "title": "Palau Güell", "has_detail_page":"1", "webpage": "http://ca.m.wikipedia.org/wiki/Palau_G%C3%BCell"},
        {"id": "3", "lat": "41.397583", "lng": "2.163028", "elevation": "0", "title": "Casa Milà (La Pedrera)", "has_detail_page":"1", "webpage": "http://ca.m.wikipedia.org/wiki/Casa_Mil%C3%A0"},
        {"id": "4", "lat": "41.380694", "lng": "2.175167", "elevation": "0", "title": "Casa Vicens", "has_detail_page":"1", "webpage": "http://ca.m.wikipedia.org/wiki/Casa_Vicens"},
        {"id": "5", "lat": "41.405500", "lng": "2.175056", "elevation": "0", "title": "Sagrada Família", "has_detail_page":"1", "webpage": "http://ca.m.wikipedia.org/wiki/Sagrada_Familia"},
        {"id": "6", "lat": "41.366750", "lng": "2.166389", "elevation": "0", "title": "Casa Batlló", "has_detail_page":"1", "webpage": "http://ca.m.wikipedia.org/wiki/Casa_Batll%C3%B3"},
        {"id": "7", "lat": "41.387778", "lng": "2.175000", "elevation": "0", "title": "Palau de la Música Catalana", "has_detail_page":"1", "webpage": "http://ca.m.wikipedia.org/wiki/Palau_de_la_M%C3%BAsica_Catalana"},
        {"id": "8", "lat": "41.413889", "lng": "2.175000", "elevation": "0", "title": "Hospital de Sant Pau", "has_detail_page":"1", "webpage": "http://ca.m.wikipedia.org/wiki/Hospital_de_Sant_Pau"},
    ]
}


		        